{
  "type": "FeatureCollection",
  "features": [
    {
      "type": "Feature",
      "geometry": {
        "type": "Point",
        "coordinates": [
          27.832182563513896,
          56.87081803558701
        ]
      },
      "properties": {
        "name": "Grebņeva - Ubylinka",
        "description": "Border crossing between Grebņeva and Ubylinka.",
        "status": "open"
      }
    },
    {
      "type": "Feature",
      "geometry": {
        "type": "Point",
        "coordinates": [
          27.914040540470836,
          56.745798831621016
        ]
      },
      "properties": {
        "name": "RKP Golišovo - KPP Lyamoni",
        "description": "Border crossing between RKP Golišovo and KPP Lyamoni.",
        "status": "closed"
      }
    },
    {
      "type": "Feature",
      "geometry": {
        "type": "Point",
        "coordinates": [
          28.19384960179599,
          56.35597922029348
        ]
      },
      "properties": {
        "name": "Techova - Burachki",
        "description": "Border crossing between Terehova and Burachki.",
        "status": "open"
      }
    },
    {
      "type": "Feature",
      "geometry": {
        "type": "Point",
        "coordinates": [
          27.629068164447887,
          55.820600413782984
        ]
      },
      "properties": {
        "name": "Paternieki - Pto Grigorovshchina",
        "description": "Border crossing between Paternieki and Pto Grigorovshchina.",
        "status": "closed"
      }
    }, {
      "type": "Feature",
      "geometry": {
        "type": "Point",
        "coordinates": [
          26.873645390773447,
          55.71806427787925
        ]
      },
      "properties": {
        "name": "Urbany (Урбаны) — Silene",
        "description": "Border crossing between Urbany (Урбаны) — Silene",
        "status": "closed"
      }
    }
  ]
}